{"type": "FeatureCollection", "features": [{"geometry": {"type": "Point", "coordinates": [-81.470156, 28.417149]}, "type": "Feature", "properties": {"Date": "2014-09-16 11:58:47 UTC", "Name": "SEA_0008_0003", "Location": "Westwood Boulevard, Orlando,  Florida, 32821"}}, {"geometry": {"type": "Point", "coordinates": [-81.470156, 28.417149]}, "type": "Feature", "properties": {"Date": "2014-09-16 11:58:47 UTC", "Name": "SEA_0008_0003", "Location": "Westwood Boulevard, Orlando,  Florida, 32821"}}, {"geometry": {"type": "Point", "coordinates": [-81.452599, 28.414887]}, "type": "Feature", "properties": {"Date": "2014-09-16 12:04:14 UTC", "Name": "SEA_0008_0003", "Location": "Mormon Drive, Montpelier, Williamsburg,  Florida, 32821"}}, {"geometry": {"type": "Point", "coordinates": [-81.460927, 28.410207]}, "type": "Feature", "properties": {"Date": "2014-09-16 12:10:16 UTC", "Name": "SEA_0008_0003", "Location": "SeaWorld Orlando, 7007, International Drive, Orlando,  Florida, 32821"}}, {"geometry": {"type": "Point", "coordinates": [-81.460936, 28.410204]}, "type": "Feature", "properties": {"Date": "2014-09-16 12:16:21 UTC", "Name": "SEA_0008_0003", "Location": "SeaWorld Orlando, 7007, International Drive, Orlando,  Florida, 32821"}}, {"geometry": {"type": "Point", "coordinates": [-81.460936, 28.410204]}, "type": "Feature", "properties": {"Date": "2014-09-16 12:16:21 UTC", "Name": "SEA_0008_0003", "Location": "SeaWorld Orlando, 7007, International Drive, Orlando,  Florida, 32821"}}, {"geometry": {"type": "Point", "coordinates": [-81.459902, 28.412357]}, "type": "Feature", "properties": {"Date": "2014-09-16 12:32:14 UTC", "Name": "SEA_0008_0003", "Location": "Antarctica, International Drive, Orlando,  Florida, 32821"}}, {"geometry": {"type": "Point", "coordinates": [-81.459846, 28.412453]}, "type": "Feature", "properties": {"Date": "2014-09-16 12:35:19 UTC", "Name": "SEA_0008_0003", "Location": "Antarctica, International Drive, Orlando,  Florida, 32821"}}, {"geometry": {"type": "Point", "coordinates": [-81.460114, 28.412219]}, "type": "Feature", "properties": {"Date": "2014-09-16 12:37:01 UTC", "Name": "SEA_0008_0003", "Location": "Anarctic Market, International Drive, Orlando,  Florida, 32821"}}, {"geometry": {"type": "Point", "coordinates": [-81.4599, 28.412347]}, "type": "Feature", "properties": {"Date": "2014-09-16 12:37:04 UTC", "Name": "SEA_0008_0003", "Location": "Antarctica, International Drive, Orlando,  Florida, 32821"}}, {"geometry": {"type": "Point", "coordinates": [-81.459831, 28.412411]}, "type": "Feature", "properties": {"Date": "2014-09-16 12:38:13 UTC", "Name": "SEA_0008_0003", "Location": "Antarctica, International Drive, Orlando,  Florida, 32821"}}, {"geometry": {"type": "Point", "coordinates": [-81.460114, 28.412219]}, "type": "Feature", "properties": {"Date": "2014-09-16 12:43:19 UTC", "Name": "SEA_0008_0003", "Location": "Anarctic Market, International Drive, Orlando,  Florida, 32821"}}, {"geometry": {"type": "Point", "coordinates": [-81.459879, 28.412384]}, "type": "Feature", "properties": {"Date": "2014-09-16 12:44:35 UTC", "Name": "SEA_0008_0003", "Location": "Antarctica, International Drive, Orlando,  Florida, 32821"}}, {"geometry": {"type": "Point", "coordinates": [-81.459902, 28.412367]}, "type": "Feature", "properties": {"Date": "2014-09-16 12:44:59 UTC", "Name": "SEA_0008_0003", "Location": "Antarctica, International Drive, Orlando,  Florida, 32821"}}, {"geometry": {"type": "Point", "coordinates": [-81.460004, 28.412404]}, "type": "Feature", "properties": {"Date": "2014-09-16 12:47:25 UTC", "Name": "SEA_0008_0003", "Location": "Antarctica, International Drive, Orlando,  Florida, 32821"}}, {"geometry": {"type": "Point", "coordinates": [-81.460114, 28.412219]}, "type": "Feature", "properties": {"Date": "2014-09-16 12:49:03 UTC", "Name": "SEA_0008_0003", "Location": "Anarctic Market, International Drive, Orlando,  Florida, 32821"}}, {"geometry": {"type": "Point", "coordinates": [-81.459906, 28.412361]}, "type": "Feature", "properties": {"Date": "2014-09-16 12:49:11 UTC", "Name": "SEA_0008_0003", "Location": "Antarctica, International Drive, Orlando,  Florida, 32821"}}, {"geometry": {"type": "Point", "coordinates": [-81.462581, 28.414017]}, "type": "Feature", "properties": {"Date": "2014-09-16 12:53:18 UTC", "Name": "SEA_0008_0003", "Location": "Sea Harbor Drive, Orlando,  Florida, 32821"}}, {"geometry": {"type": "Point", "coordinates": [-81.459906, 28.412361]}, "type": "Feature", "properties": {"Date": "2014-09-16 12:54:20 UTC", "Name": "SEA_0008_0003", "Location": "Antarctica, International Drive, Orlando,  Florida, 32821"}}, {"geometry": {"type": "Point", "coordinates": [-81.460114, 28.412219]}, "type": "Feature", "properties": {"Date": "2014-09-16 12:55:13 UTC", "Name": "SEA_0008_0003", "Location": "Anarctic Market, International Drive, Orlando,  Florida, 32821"}}, {"geometry": {"type": "Point", "coordinates": [-81.462119, 28.407983]}, "type": "Feature", "properties": {"Date": "2014-09-16 12:59:03 UTC", "Name": "SEA_0008_0003", "Location": "Shamu Stadium, Central Florida Parkway, Orlando,  Florida, 32821"}}, {"geometry": {"type": "Point", "coordinates": [-81.462128, 28.408012]}, "type": "Feature", "properties": {"Date": "2014-09-16 12:59:31 UTC", "Name": "SEA_0008_0003", "Location": "Shamu Stadium, Central Florida Parkway, Orlando,  Florida, 32821"}}, {"geometry": {"type": "Point", "coordinates": [-81.461938, 28.408325]}, "type": "Feature", "properties": {"Date": "2014-09-16 13:00:08 UTC", "Name": "SEA_0008_0003", "Location": "One Ocean, 7007, Central Florida Parkway, Orlando,  Florida, 32821"}}, {"geometry": {"type": "Point", "coordinates": [-81.462508, 28.407601]}, "type": "Feature", "properties": {"Date": "2014-09-16 13:04:26 UTC", "Name": "SEA_0008_0003", "Location": "Shamu Stadium, Central Florida Parkway, Orlando,  Florida, 32821"}}, {"geometry": {"type": "Point", "coordinates": [-81.462147, 28.408026]}, "type": "Feature", "properties": {"Date": "2014-09-16 13:05:11 UTC", "Name": "SEA_0008_0003", "Location": "Shamu Stadium, Central Florida Parkway, Orlando,  Florida, 32821"}}, {"geometry": {"type": "Point", "coordinates": [-81.465036, 28.401713]}, "type": "Feature", "properties": {"Date": "2014-09-16 13:06:10 UTC", "Name": "SEA_0008_0003", "Location": "Tanglewood Bay Drive, Orlando,  Florida, 32821"}}, {"geometry": {"type": "Point", "coordinates": [-81.465036, 28.401713]}, "type": "Feature", "properties": {"Date": "2014-09-16 13:06:10 UTC", "Name": "SEA_0008_0003", "Location": "Tanglewood Bay Drive, Orlando,  Florida, 32821"}}, {"geometry": {"type": "Point", "coordinates": [-81.462508, 28.407601]}, "type": "Feature", "properties": {"Date": "2014-09-16 13:11:27 UTC", "Name": "SEA_0008_0003", "Location": "Shamu Stadium, Central Florida Parkway, Orlando,  Florida, 32821"}}, {"geometry": {"type": "Point", "coordinates": [-81.4637, 28.414122]}, "type": "Feature", "properties": {"Date": "2014-09-16 19:38:16 UTC", "Name": "SEA_0008_0003", "Location": "Sea Harbor Drive, Orlando,  Florida, 32821"}}, {"geometry": {"type": "Point", "coordinates": [-81.4637, 28.414122]}, "type": "Feature", "properties": {"Date": "2014-09-16 19:38:16 UTC", "Name": "SEA_0008_0003", "Location": "Sea Harbor Drive, Orlando,  Florida, 32821"}}, {"geometry": {"type": "Point", "coordinates": [-81.461489, 28.410208]}, "type": "Feature", "properties": {"Date": "2014-09-17 13:04:43 UTC", "Name": "SEA_0008_0003", "Location": "Sky Tower, 7007, Central Florida Parkway, Orlando,  Florida, 32821"}}, {"geometry": {"type": "Point", "coordinates": [-81.461489, 28.410208]}, "type": "Feature", "properties": {"Date": "2014-09-17 13:04:43 UTC", "Name": "SEA_0008_0003", "Location": "Sky Tower, 7007, Central Florida Parkway, Orlando,  Florida, 32821"}}]}