{"type": "FeatureCollection", "features": [{"geometry": {"type": "Point", "coordinates": [-81.470156, 28.417149]}, "type": "Feature", "properties": {"Location": "Westwood Boulevard, Orlando,  Florida, 32821", "Name": "SEA_0006_0002", "DateTime": "2014-09-16 11:58:48 UTC"}}, {"geometry": {"type": "Point", "coordinates": [-81.470156, 28.417149]}, "type": "Feature", "properties": {"Location": "Westwood Boulevard, Orlando,  Florida, 32821", "Name": "SEA_0006_0002", "DateTime": "2014-09-16 11:58:48 UTC"}}, {"geometry": {"type": "Point", "coordinates": [-81.452599, 28.414887]}, "type": "Feature", "properties": {"Location": "Mormon Drive, Montpelier, Williamsburg,  Florida, 32821", "Name": "SEA_0006_0002", "DateTime": "2014-09-16 12:04:14 UTC"}}, {"geometry": {"type": "Point", "coordinates": [-81.460927, 28.410207]}, "type": "Feature", "properties": {"Location": "SeaWorld Orlando, 7007, International Drive, Orlando,  Florida, 32821", "Name": "SEA_0006_0002", "DateTime": "2014-09-16 12:10:30 UTC"}}, {"geometry": {"type": "Point", "coordinates": [-81.460936, 28.410204]}, "type": "Feature", "properties": {"Location": "SeaWorld Orlando, 7007, International Drive, Orlando,  Florida, 32821", "Name": "SEA_0006_0002", "DateTime": "2014-09-16 12:16:15 UTC"}}, {"geometry": {"type": "Point", "coordinates": [-81.460936, 28.410204]}, "type": "Feature", "properties": {"Location": "SeaWorld Orlando, 7007, International Drive, Orlando,  Florida, 32821", "Name": "SEA_0006_0002", "DateTime": "2014-09-16 12:16:15 UTC"}}, {"geometry": {"type": "Point", "coordinates": [-81.459858, 28.412414]}, "type": "Feature", "properties": {"Location": "Antarctica, International Drive, Orlando,  Florida, 32821", "Name": "SEA_0006_0002", "DateTime": "2014-09-16 12:38:18 UTC"}}, {"geometry": {"type": "Point", "coordinates": [-81.459858, 28.412414]}, "type": "Feature", "properties": {"Location": "Antarctica, International Drive, Orlando,  Florida, 32821", "Name": "SEA_0006_0002", "DateTime": "2014-09-16 12:38:18 UTC"}}, {"geometry": {"type": "Point", "coordinates": [-81.459917, 28.412339]}, "type": "Feature", "properties": {"Location": "Antarctica, International Drive, Orlando,  Florida, 32821", "Name": "SEA_0006_0002", "DateTime": "2014-09-16 12:39:04 UTC"}}, {"geometry": {"type": "Point", "coordinates": [-81.459917, 28.412339]}, "type": "Feature", "properties": {"Location": "Antarctica, International Drive, Orlando,  Florida, 32821", "Name": "SEA_0006_0002", "DateTime": "2014-09-16 12:39:04 UTC"}}, {"geometry": {"type": "Point", "coordinates": [-81.460114, 28.412219]}, "type": "Feature", "properties": {"Location": "Anarctic Market, International Drive, Orlando,  Florida, 32821", "Name": "SEA_0006_0002", "DateTime": "2014-09-16 12:40:26 UTC"}}, {"geometry": {"type": "Point", "coordinates": [-81.459879, 28.412384]}, "type": "Feature", "properties": {"Location": "Antarctica, International Drive, Orlando,  Florida, 32821", "Name": "SEA_0006_0002", "DateTime": "2014-09-16 12:44:36 UTC"}}, {"geometry": {"type": "Point", "coordinates": [-81.460114, 28.412219]}, "type": "Feature", "properties": {"Location": "Anarctic Market, International Drive, Orlando,  Florida, 32821", "Name": "SEA_0006_0002", "DateTime": "2014-09-16 12:44:50 UTC"}}, {"geometry": {"type": "Point", "coordinates": [-81.459902, 28.412367]}, "type": "Feature", "properties": {"Location": "Antarctica, International Drive, Orlando,  Florida, 32821", "Name": "SEA_0006_0002", "DateTime": "2014-09-16 12:44:59 UTC"}}, {"geometry": {"type": "Point", "coordinates": [-81.460004, 28.412404]}, "type": "Feature", "properties": {"Location": "Antarctica, International Drive, Orlando,  Florida, 32821", "Name": "SEA_0006_0002", "DateTime": "2014-09-16 12:47:27 UTC"}}, {"geometry": {"type": "Point", "coordinates": [-81.460114, 28.412219]}, "type": "Feature", "properties": {"Location": "Anarctic Market, International Drive, Orlando,  Florida, 32821", "Name": "SEA_0006_0002", "DateTime": "2014-09-16 12:49:12 UTC"}}, {"geometry": {"type": "Point", "coordinates": [-81.459906, 28.412361]}, "type": "Feature", "properties": {"Location": "Antarctica, International Drive, Orlando,  Florida, 32821", "Name": "SEA_0006_0002", "DateTime": "2014-09-16 12:49:27 UTC"}}, {"geometry": {"type": "Point", "coordinates": [-81.462581, 28.414017]}, "type": "Feature", "properties": {"Location": "Sea Harbor Drive, Orlando,  Florida, 32821", "Name": "SEA_0006_0002", "DateTime": "2014-09-16 12:53:20 UTC"}}, {"geometry": {"type": "Point", "coordinates": [-81.460114, 28.412219]}, "type": "Feature", "properties": {"Location": "Anarctic Market, International Drive, Orlando,  Florida, 32821", "Name": "SEA_0006_0002", "DateTime": "2014-09-16 12:55:02 UTC"}}, {"geometry": {"type": "Point", "coordinates": [-81.461938, 28.408325]}, "type": "Feature", "properties": {"Location": "One Ocean, 7007, Central Florida Parkway, Orlando,  Florida, 32821", "Name": "SEA_0006_0002", "DateTime": "2014-09-16 13:00:08 UTC"}}, {"geometry": {"type": "Point", "coordinates": [-81.462508, 28.407601]}, "type": "Feature", "properties": {"Location": "Shamu Stadium, Central Florida Parkway, Orlando,  Florida, 32821", "Name": "SEA_0006_0002", "DateTime": "2014-09-16 13:14:23 UTC"}}, {"geometry": {"type": "Point", "coordinates": [-81.462508, 28.407601]}, "type": "Feature", "properties": {"Location": "Shamu Stadium, Central Florida Parkway, Orlando,  Florida, 32821", "Name": "SEA_0006_0002", "DateTime": "2014-09-16 13:14:23 UTC"}}, {"geometry": {"type": "Point", "coordinates": [-81.462508, 28.407601]}, "type": "Feature", "properties": {"Location": "Shamu Stadium, Central Florida Parkway, Orlando,  Florida, 32821", "Name": "SEA_0006_0002", "DateTime": "2014-09-16 13:14:38 UTC"}}, {"geometry": {"type": "Point", "coordinates": [-81.460718, 28.408041]}, "type": "Feature", "properties": {"Location": "Sea Harbor Soft Serve, 7007, Central Florida Parkway, Orlando,  Florida, 32821", "Name": "SEA_0006_0002", "DateTime": "2014-09-16 13:21:01 UTC"}}, {"geometry": {"type": "Point", "coordinates": [-81.457286, 28.40674]}, "type": "Feature", "properties": {"Location": "Central Florida Parkway, Orlando,  Florida, 32821", "Name": "SEA_0006_0002", "DateTime": "2014-09-16 13:21:12 UTC"}}, {"geometry": {"type": "Point", "coordinates": [-81.457286, 28.40674]}, "type": "Feature", "properties": {"Location": "Central Florida Parkway, Orlando,  Florida, 32821", "Name": "SEA_0006_0002", "DateTime": "2014-09-16 13:21:12 UTC"}}, {"geometry": {"type": "Point", "coordinates": [-81.460676, 28.408059]}, "type": "Feature", "properties": {"Location": "Sea Harbor Soft Serve, 7007, Central Florida Parkway, Orlando,  Florida, 32821", "Name": "SEA_0006_0002", "DateTime": "2014-09-16 13:21:12 UTC"}}, {"geometry": {"type": "Point", "coordinates": [-81.460676, 28.408059]}, "type": "Feature", "properties": {"Location": "Sea Harbor Soft Serve, 7007, Central Florida Parkway, Orlando,  Florida, 32821", "Name": "SEA_0006_0002", "DateTime": "2014-09-16 13:21:12 UTC"}}, {"geometry": {"type": "Point", "coordinates": [-81.462536, 28.407431]}, "type": "Feature", "properties": {"Location": "Shamu's Happy Harbor, 7007, Central Florida Parkway, Orlando,  Florida, 32821", "Name": "SEA_0006_0002", "DateTime": "2014-09-16 13:41:47 UTC"}}, {"geometry": {"type": "Point", "coordinates": [-81.462536, 28.407431]}, "type": "Feature", "properties": {"Location": "Shamu's Happy Harbor, 7007, Central Florida Parkway, Orlando,  Florida, 32821", "Name": "SEA_0006_0002", "DateTime": "2014-09-16 13:41:47 UTC"}}, {"geometry": {"type": "Point", "coordinates": [-81.464123, 28.405897]}, "type": "Feature", "properties": {"Location": "Discovery Cove, 6000, Central Florida Parkway, Orlando,  Florida, 32821", "Name": "SEA_0006_0002", "DateTime": "2014-09-16 13:42:00 UTC"}}, {"geometry": {"type": "Point", "coordinates": [-81.464123, 28.405897]}, "type": "Feature", "properties": {"Location": "Discovery Cove, 6000, Central Florida Parkway, Orlando,  Florida, 32821", "Name": "SEA_0006_0002", "DateTime": "2014-09-16 13:42:00 UTC"}}, {"geometry": {"type": "Point", "coordinates": [-81.463532, 28.403922]}, "type": "Feature", "properties": {"Location": "Central Florida Parkway, Orlando,  Florida, 32821", "Name": "SEA_0006_0002", "DateTime": "2014-09-16 13:43:38 UTC"}}, {"geometry": {"type": "Point", "coordinates": [-81.464894, 28.408982]}, "type": "Feature", "properties": {"Location": "Sea Harbor Drive, Orlando,  Florida, 32821", "Name": "SEA_0006_0002", "DateTime": "2014-09-16 13:46:40 UTC"}}, {"geometry": {"type": "Point", "coordinates": [-81.467089, 28.406793]}, "type": "Feature", "properties": {"Location": "Central Florida Parkway, Orlando,  Florida, 32821", "Name": "SEA_0006_0002", "DateTime": "2014-09-16 13:49:37 UTC"}}, {"geometry": {"type": "Point", "coordinates": [-81.460708, 28.409628]}, "type": "Feature", "properties": {"Location": "Sharks Underwater Grill & Bar, 7007, Central Florida Parkway, Orlando,  Florida, 32821", "Name": "SEA_0006_0002", "DateTime": "2014-09-16 14:30:35 UTC"}}, {"geometry": {"type": "Point", "coordinates": [-81.460708, 28.409628]}, "type": "Feature", "properties": {"Location": "Sharks Underwater Grill & Bar, 7007, Central Florida Parkway, Orlando,  Florida, 32821", "Name": "SEA_0006_0002", "DateTime": "2014-09-16 14:30:35 UTC"}}, {"geometry": {"type": "Point", "coordinates": [-81.461146, 28.410661]}, "type": "Feature", "properties": {"Location": "SeaWorld Orlando, 7007, International Drive, Orlando,  Florida, 32821", "Name": "SEA_0006_0002", "DateTime": "2014-09-16 14:30:36 UTC"}}, {"geometry": {"type": "Point", "coordinates": [-81.461146, 28.410661]}, "type": "Feature", "properties": {"Location": "SeaWorld Orlando, 7007, International Drive, Orlando,  Florida, 32821", "Name": "SEA_0006_0002", "DateTime": "2014-09-16 14:30:36 UTC"}}, {"geometry": {"type": "Point", "coordinates": [-81.461146, 28.410661]}, "type": "Feature", "properties": {"Location": "SeaWorld Orlando, 7007, International Drive, Orlando,  Florida, 32821", "Name": "SEA_0006_0002", "DateTime": "2014-09-16 14:31:42 UTC"}}, {"geometry": {"type": "Point", "coordinates": [-81.46083899999999, 28.410473]}, "type": "Feature", "properties": {"Location": "SeaWorld Orlando, 7007, International Drive, Orlando,  Florida, 32821", "Name": "SEA_0006_0002", "DateTime": "2014-09-16 14:34:39 UTC"}}, {"geometry": {"type": "Point", "coordinates": [-81.461466, 28.410709]}, "type": "Feature", "properties": {"Location": "SeaWorld Orlando, 7007, International Drive, Orlando,  Florida, 32821", "Name": "SEA_0006_0002", "DateTime": "2014-09-16 14:47:14 UTC"}}, {"geometry": {"type": "Point", "coordinates": [-81.461466, 28.410709]}, "type": "Feature", "properties": {"Location": "SeaWorld Orlando, 7007, International Drive, Orlando,  Florida, 32821", "Name": "SEA_0006_0002", "DateTime": "2014-09-16 14:47:14 UTC"}}, {"geometry": {"type": "Point", "coordinates": [-81.461964, 28.410963]}, "type": "Feature", "properties": {"Location": "Seafire Inn Restaurant, Sea Harbor Drive, Orlando,  Florida, 32821", "Name": "SEA_0006_0002", "DateTime": "2014-09-16 14:48:21 UTC"}}, {"geometry": {"type": "Point", "coordinates": [-81.461346, 28.408241]}, "type": "Feature", "properties": {"Location": "Sea Harbor Soft Serve, 7007, Central Florida Parkway, Orlando,  Florida, 32821", "Name": "SEA_0006_0002", "DateTime": "2014-09-16 14:50:38 UTC"}}, {"geometry": {"type": "Point", "coordinates": [-81.461346, 28.408241]}, "type": "Feature", "properties": {"Location": "Sea Harbor Soft Serve, 7007, Central Florida Parkway, Orlando,  Florida, 32821", "Name": "SEA_0006_0002", "DateTime": "2014-09-16 14:50:38 UTC"}}, {"geometry": {"type": "Point", "coordinates": [-81.462794, 28.405058]}, "type": "Feature", "properties": {"Location": "Serenity Bay, 6000, Central Florida Parkway, Orlando,  Florida, 32821", "Name": "SEA_0006_0002", "DateTime": "2014-09-16 14:51:44 UTC"}}, {"geometry": {"type": "LineString", "coordinates": [[-81.470156, 28.417149], [-81.470156, 28.417149], [-81.452599, 28.414887], [-81.460927, 28.410207], [-81.460936, 28.410204], [-81.460936, 28.410204], [-81.459858, 28.412414], [-81.459858, 28.412414], [-81.459917, 28.412339], [-81.459917, 28.412339], [-81.460114, 28.412219], [-81.459879, 28.412384], [-81.460114, 28.412219], [-81.459902, 28.412367], [-81.460004, 28.412404], [-81.460114, 28.412219], [-81.459906, 28.412361], [-81.462581, 28.414017], [-81.460114, 28.412219], [-81.461938, 28.408325], [-81.462508, 28.407601], [-81.462508, 28.407601], [-81.462508, 28.407601], [-81.460718, 28.408041], [-81.457286, 28.40674], [-81.457286, 28.40674], [-81.460676, 28.408059], [-81.460676, 28.408059], [-81.462536, 28.407431], [-81.462536, 28.407431], [-81.464123, 28.405897], [-81.464123, 28.405897], [-81.463532, 28.403922], [-81.464894, 28.408982], [-81.467089, 28.406793], [-81.460708, 28.409628], [-81.460708, 28.409628], [-81.461146, 28.410661], [-81.461146, 28.410661], [-81.461146, 28.410661], [-81.46083899999999, 28.410473], [-81.461466, 28.410709], [-81.461466, 28.410709], [-81.461964, 28.410963], [-81.461346, 28.408241], [-81.461346, 28.408241], [-81.462794, 28.405058]]}, "type": "Feature", "properties": {}}]}