{"type": "FeatureCollection", "features": [{"geometry": {"type": "Point", "coordinates": [-81.470156, 28.417149]}, "type": "Feature", "properties": {"Date": "2014-09-16 11:58:47 UTC", "Name": "SEA_0010_0007", "Location": "Westwood Boulevard, Orlando,  Florida, 32821"}}, {"geometry": {"type": "Point", "coordinates": [-81.470156, 28.417149]}, "type": "Feature", "properties": {"Date": "2014-09-16 11:58:47 UTC", "Name": "SEA_0010_0007", "Location": "Westwood Boulevard, Orlando,  Florida, 32821"}}, {"geometry": {"type": "Point", "coordinates": [-81.452599, 28.414887]}, "type": "Feature", "properties": {"Date": "2014-09-16 12:04:14 UTC", "Name": "SEA_0010_0007", "Location": "Mormon Drive, Montpelier, Williamsburg,  Florida, 32821"}}, {"geometry": {"type": "Point", "coordinates": [-81.460927, 28.410207]}, "type": "Feature", "properties": {"Date": "2014-09-16 12:10:16 UTC", "Name": "SEA_0010_0007", "Location": "SeaWorld Orlando, 7007, International Drive, Orlando,  Florida, 32821"}}, {"geometry": {"type": "Point", "coordinates": [-81.460936, 28.410204]}, "type": "Feature", "properties": {"Date": "2014-09-16 12:16:15 UTC", "Name": "SEA_0010_0007", "Location": "SeaWorld Orlando, 7007, International Drive, Orlando,  Florida, 32821"}}, {"geometry": {"type": "Point", "coordinates": [-81.460936, 28.410204]}, "type": "Feature", "properties": {"Date": "2014-09-16 12:16:15 UTC", "Name": "SEA_0010_0007", "Location": "SeaWorld Orlando, 7007, International Drive, Orlando,  Florida, 32821"}}, {"geometry": {"type": "Point", "coordinates": [-81.459858, 28.412414]}, "type": "Feature", "properties": {"Date": "2014-09-16 12:38:25 UTC", "Name": "SEA_0010_0007", "Location": "Antarctica, International Drive, Orlando,  Florida, 32821"}}, {"geometry": {"type": "Point", "coordinates": [-81.459858, 28.412414]}, "type": "Feature", "properties": {"Date": "2014-09-16 12:38:25 UTC", "Name": "SEA_0010_0007", "Location": "Antarctica, International Drive, Orlando,  Florida, 32821"}}, {"geometry": {"type": "Point", "coordinates": [-81.459917, 28.412339]}, "type": "Feature", "properties": {"Date": "2014-09-16 12:39:04 UTC", "Name": "SEA_0010_0007", "Location": "Antarctica, International Drive, Orlando,  Florida, 32821"}}, {"geometry": {"type": "Point", "coordinates": [-81.459917, 28.412339]}, "type": "Feature", "properties": {"Date": "2014-09-16 12:39:04 UTC", "Name": "SEA_0010_0007", "Location": "Antarctica, International Drive, Orlando,  Florida, 32821"}}, {"geometry": {"type": "Point", "coordinates": [-81.460114, 28.412219]}, "type": "Feature", "properties": {"Date": "2014-09-16 12:40:07 UTC", "Name": "SEA_0010_0007", "Location": "Anarctic Market, International Drive, Orlando,  Florida, 32821"}}, {"geometry": {"type": "Point", "coordinates": [-81.460114, 28.412219]}, "type": "Feature", "properties": {"Date": "2014-09-16 12:44:49 UTC", "Name": "SEA_0010_0007", "Location": "Anarctic Market, International Drive, Orlando,  Florida, 32821"}}, {"geometry": {"type": "Point", "coordinates": [-81.459879, 28.412384]}, "type": "Feature", "properties": {"Date": "2014-09-16 12:44:50 UTC", "Name": "SEA_0010_0007", "Location": "Antarctica, International Drive, Orlando,  Florida, 32821"}}, {"geometry": {"type": "Point", "coordinates": [-81.459902, 28.412367]}, "type": "Feature", "properties": {"Date": "2014-09-16 12:44:55 UTC", "Name": "SEA_0010_0007", "Location": "Antarctica, International Drive, Orlando,  Florida, 32821"}}, {"geometry": {"type": "Point", "coordinates": [-81.460004, 28.412404]}, "type": "Feature", "properties": {"Date": "2014-09-16 12:47:22 UTC", "Name": "SEA_0010_0007", "Location": "Antarctica, International Drive, Orlando,  Florida, 32821"}}, {"geometry": {"type": "Point", "coordinates": [-81.460114, 28.412219]}, "type": "Feature", "properties": {"Date": "2014-09-16 12:49:04 UTC", "Name": "SEA_0010_0007", "Location": "Anarctic Market, International Drive, Orlando,  Florida, 32821"}}, {"geometry": {"type": "Point", "coordinates": [-81.459906, 28.412361]}, "type": "Feature", "properties": {"Date": "2014-09-16 12:49:15 UTC", "Name": "SEA_0010_0007", "Location": "Antarctica, International Drive, Orlando,  Florida, 32821"}}, {"geometry": {"type": "Point", "coordinates": [-81.462581, 28.414017]}, "type": "Feature", "properties": {"Date": "2014-09-16 12:53:26 UTC", "Name": "SEA_0010_0007", "Location": "Sea Harbor Drive, Orlando,  Florida, 32821"}}, {"geometry": {"type": "Point", "coordinates": [-81.460114, 28.412219]}, "type": "Feature", "properties": {"Date": "2014-09-16 12:55:13 UTC", "Name": "SEA_0010_0007", "Location": "Anarctic Market, International Drive, Orlando,  Florida, 32821"}}, {"geometry": {"type": "Point", "coordinates": [-81.462128, 28.408012]}, "type": "Feature", "properties": {"Date": "2014-09-16 12:56:00 UTC", "Name": "SEA_0010_0007", "Location": "Shamu Stadium, Central Florida Parkway, Orlando,  Florida, 32821"}}, {"geometry": {"type": "Point", "coordinates": [-81.462119, 28.407983]}, "type": "Feature", "properties": {"Date": "2014-09-16 12:59:12 UTC", "Name": "SEA_0010_0007", "Location": "Shamu Stadium, Central Florida Parkway, Orlando,  Florida, 32821"}}, {"geometry": {"type": "Point", "coordinates": [-81.461938, 28.408325]}, "type": "Feature", "properties": {"Date": "2014-09-16 13:00:11 UTC", "Name": "SEA_0010_0007", "Location": "One Ocean, 7007, Central Florida Parkway, Orlando,  Florida, 32821"}}, {"geometry": {"type": "Point", "coordinates": [-81.462508, 28.407601]}, "type": "Feature", "properties": {"Date": "2014-09-16 13:14:13 UTC", "Name": "SEA_0010_0007", "Location": "Shamu Stadium, Central Florida Parkway, Orlando,  Florida, 32821"}}, {"geometry": {"type": "Point", "coordinates": [-81.462508, 28.407601]}, "type": "Feature", "properties": {"Date": "2014-09-16 13:14:13 UTC", "Name": "SEA_0010_0007", "Location": "Shamu Stadium, Central Florida Parkway, Orlando,  Florida, 32821"}}, {"geometry": {"type": "Point", "coordinates": [-81.462508, 28.407601]}, "type": "Feature", "properties": {"Date": "2014-09-16 13:14:46 UTC", "Name": "SEA_0010_0007", "Location": "Shamu Stadium, Central Florida Parkway, Orlando,  Florida, 32821"}}, {"geometry": {"type": "Point", "coordinates": [-81.461543, 28.408164]}, "type": "Feature", "properties": {"Date": "2014-09-16 13:15:34 UTC", "Name": "SEA_0010_0007", "Location": "One Ocean, 7007, Central Florida Parkway, Orlando,  Florida, 32821"}}, {"geometry": {"type": "Point", "coordinates": [-81.461543, 28.408164]}, "type": "Feature", "properties": {"Date": "2014-09-16 13:15:34 UTC", "Name": "SEA_0010_0007", "Location": "One Ocean, 7007, Central Florida Parkway, Orlando,  Florida, 32821"}}, {"geometry": {"type": "Point", "coordinates": [-81.46232, 28.408561]}, "type": "Feature", "properties": {"Date": "2014-09-16 13:15:41 UTC", "Name": "SEA_0010_0007", "Location": "Shamu Stadium, Central Florida Parkway, Orlando,  Florida, 32821"}}, {"geometry": {"type": "Point", "coordinates": [-81.46232, 28.408561]}, "type": "Feature", "properties": {"Date": "2014-09-16 13:15:41 UTC", "Name": "SEA_0010_0007", "Location": "Shamu Stadium, Central Florida Parkway, Orlando,  Florida, 32821"}}, {"geometry": {"type": "Point", "coordinates": [-81.460668, 28.408076]}, "type": "Feature", "properties": {"Date": "2014-09-16 13:16:39 UTC", "Name": "SEA_0010_0007", "Location": "Sea Harbor Soft Serve, 7007, Central Florida Parkway, Orlando,  Florida, 32821"}}, {"geometry": {"type": "Point", "coordinates": [-81.457286, 28.40674]}, "type": "Feature", "properties": {"Date": "2014-09-16 13:19:39 UTC", "Name": "SEA_0010_0007", "Location": "Central Florida Parkway, Orlando,  Florida, 32821"}}, {"geometry": {"type": "Point", "coordinates": [-81.460718, 28.408041]}, "type": "Feature", "properties": {"Date": "2014-09-16 13:20:31 UTC", "Name": "SEA_0010_0007", "Location": "Sea Harbor Soft Serve, 7007, Central Florida Parkway, Orlando,  Florida, 32821"}}, {"geometry": {"type": "Point", "coordinates": [-81.462537, 28.407401]}, "type": "Feature", "properties": {"Date": "2014-09-16 13:22:41 UTC", "Name": "SEA_0010_0007", "Location": "Shamu's Happy Harbor, 7007, Central Florida Parkway, Orlando,  Florida, 32821"}}, {"geometry": {"type": "Point", "coordinates": [-81.460435, 28.404548]}, "type": "Feature", "properties": {"Date": "2014-09-16 13:25:32 UTC", "Name": "SEA_0010_0007", "Location": "SeaWorld Parks and Entertainment, Central Florida Parkway, Orlando,  Florida, 32821"}}, {"geometry": {"type": "Point", "coordinates": [-81.462543, 28.40756]}, "type": "Feature", "properties": {"Date": "2014-09-16 13:26:01 UTC", "Name": "SEA_0010_0007", "Location": "Shamu Stadium, Central Florida Parkway, Orlando,  Florida, 32821"}}, {"geometry": {"type": "Point", "coordinates": [-81.46258, 28.407497]}, "type": "Feature", "properties": {"Date": "2014-09-16 13:28:36 UTC", "Name": "SEA_0010_0007", "Location": "Shamu Stadium, Central Florida Parkway, Orlando,  Florida, 32821"}}, {"geometry": {"type": "Point", "coordinates": [-81.463076, 28.408482]}, "type": "Feature", "properties": {"Date": "2014-09-16 13:30:44 UTC", "Name": "SEA_0010_0007", "Location": "Mango Joe's Cafe, 7007, Central Florida Parkway, Orlando,  Florida, 32821"}}, {"geometry": {"type": "Point", "coordinates": [-81.462546, 28.407402]}, "type": "Feature", "properties": {"Date": "2014-09-16 13:34:40 UTC", "Name": "SEA_0010_0007", "Location": "Shamu's Happy Harbor, 7007, Central Florida Parkway, Orlando,  Florida, 32821"}}, {"geometry": {"type": "Point", "coordinates": [-81.463599, 28.408443]}, "type": "Feature", "properties": {"Date": "2014-09-16 13:38:36 UTC", "Name": "SEA_0010_0007", "Location": "Wild Arctic, Central Florida Parkway, Orlando,  Florida, 32821"}}, {"geometry": {"type": "Point", "coordinates": [-81.456756, 28.407495]}, "type": "Feature", "properties": {"Date": "2014-09-16 13:38:39 UTC", "Name": "SEA_0010_0007", "Location": "Central Florida Parkway, Orlando,  Florida, 32821"}}, {"geometry": {"type": "Point", "coordinates": [-81.456756, 28.407495]}, "type": "Feature", "properties": {"Date": "2014-09-16 13:38:39 UTC", "Name": "SEA_0010_0007", "Location": "Central Florida Parkway, Orlando,  Florida, 32821"}}, {"geometry": {"type": "Point", "coordinates": [-81.464238, 28.402936]}, "type": "Feature", "properties": {"Date": "2014-09-16 17:24:56 UTC", "Name": "SEA_0010_0007", "Location": "Central Florida Parkway, Orlando,  Florida, 32821"}}, {"geometry": {"type": "Point", "coordinates": [-81.464238, 28.402936]}, "type": "Feature", "properties": {"Date": "2014-09-16 17:24:56 UTC", "Name": "SEA_0010_0007", "Location": "Central Florida Parkway, Orlando,  Florida, 32821"}}]}